{
"type": "FeatureCollection",
"name": "Zdaniy_govoryt",
"features": [
{ "type": "Feature", "properties": { "id_0": 6, "id": 939, "zd_gov": "audio_s1/ivano-matryoninskaya-bolnica", "zd_name": "Здания говорят. Ивано-Матрёнинская детская больница (ул. Советская, 57)", "zd_link": "ivano-matryoninskaya-bolnica" }, "geometry": { "type": "Point", "coordinates": [ 104.322748670587202, 52.280375377922667 ] } },
{ "type": "Feature", "properties": { "id_0": 7, "id": 336, "zd_gov": "audio_s1/dom-bajborodinyh", "zd_name": "Здания говорят. Музей городского быта и Информационно-туристская служба (ул. Декабрьских Событий, 77)", "zd_link": "dom-bajborodinyh" }, "geometry": { "type": "Point", "coordinates": [ 104.304251964370238, 52.285984220206032 ] } },
{ "type": "Feature", "properties": { "id_0": 8, "id": 635, "zd_gov": "audio_s1/treugolnik", "zd_name": "Здания говорят. Торговый дом фирмы “Треугольник” (ул. Карла Маркса, 28)", "zd_link": "treugolnik" }, "geometry": { "type": "Point", "coordinates": [ 104.286789068858752, 52.283282299257621 ] } },
{ "type": "Feature", "properties": { "id_0": 9, "id": 534, "zd_gov": "audio_s1/russko-aziatskij-bank", "zd_name": "Здания говорят. Здание Русско-Азиатского банка (ул. Ленина, 38)", "zd_link": "russko-aziatskij-bank" }, "geometry": { "type": "Point", "coordinates": [ 104.282214931756002, 52.280181545776934 ] } },
{ "type": "Feature", "properties": { "id_0": 15, "id": 15, "zd_gov": "audio_s2/dom-finberga", "zd_name": "dom-fajnberga", "zd_link": "Здания говорят. Дом Файнберга (ул. Халтурина, 1)" }, "geometry": { "type": "Point", "coordinates": [ 104.286776816381206, 52.288914875048398 ] } },
{ "type": "Feature", "properties": { "id_0": 16, "id": 16, "zd_gov": "audio_s2/gorkogo", "zd_name": "Здания говорят. Усадьба Литвинцевых (ул. Горького, 12-14)", "zd_link": "dom-okladnikova" }, "geometry": { "type": "Point", "coordinates": [ 104.279861213792344, 52.281644053559809 ] } },
{ "type": "Feature", "properties": { "id_0": 13, "id": 13, "zd_gov": "audio_s2/sukacheva", "zd_name": "Здания говорят. Усадьба Сукачёва (ул. Декабрьских Событий, 112)", "zd_link": "usadba-sukacheva" }, "geometry": { "type": "Point", "coordinates": [ 104.316361164072475, 52.278958188810066 ] } },
{ "type": "Feature", "properties": { "id_0": 14, "id": 14, "zd_gov": "audio_s2/gryaznova", "zd_name": "Здания говорят. Заповедная улица Грязнова", "zd_link": "grjaznova-22" }, "geometry": { "type": "Point", "coordinates": [ 104.288826882872726, 52.278910741195332 ] } },
{ "type": "Feature", "properties": { "id_0": 11, "id": 11, "zd_gov": "audio_s2/kalancha", "zd_name": "Здания говорят. Здание Пожарной части (ул. Тимирязева, 33)", "zd_link": "pozharnaja-kalancha" }, "geometry": { "type": "Point", "coordinates": [ 104.298334374781462, 52.28391872357858 ] } },
{ "type": "Feature", "properties": { "id_0": 10, "id": 528, "zd_gov": "audio_s1/obshchestvennoe-sobranie", "zd_name": null, "zd_link": null }, "geometry": { "type": "Point", "coordinates": [ 104.285359773734527, 52.277607720954151 ] } },
{ "type": "Feature", "properties": { "id_0": 17, "id": 17, "zd_gov": "audio_s2/show", "zd_name": "Здания говорят. Александро-Мариинское училище (ул. Ленина, 11) и здание городской думы (ул. Ленина, 14)", "zd_link": "aleksandro-mariinskoe_uchilishe" }, "geometry": { "type": "Point", "coordinates": [ 104.282649708839159, 52.280482674262899 ] } },
{ "type": "Feature", "properties": { "id_0": 18, "id": 18, "zd_gov": "audio_s2/pochta", "zd_name": "Здания говорят. Почтовая контора (ул. Степана Разина, 23)", "zd_link": "pochta" }, "geometry": { "type": "Point", "coordinates": [ 104.276782742235184, 52.283894526089483 ] } },
{ "type": "Feature", "properties": { "id_0": 19, "id": 19, "zd_gov": "audio_s2/marata11", "zd_name": "Здания говорят. Дом призрения бедных Сибирякова (ул. Марата, 11)", "zd_link": "marata-11" }, "geometry": { "type": "Point", "coordinates": [ 104.275835260846847, 52.288580752813523 ] } },
{ "type": "Feature", "properties": { "id_0": 20, "id": 20, "zd_gov": "audio_s2/ledokol", "zd_name": "Здания говорят. Ледокол “Ангара”", "zd_link": "ledokol-angara" }, "geometry": { "type": "Point", "coordinates": [ 104.343831380694567, 52.250110985711096 ] } },
{ "type": "Feature", "properties": { "id_0": 12, "id": 12, "zd_gov": "audio_s2/most_vokzal", "zd_name": "Здания говорят. Здание Прогимназии Гайдук (ул. 5 Армии, 2), Железнодорожный вокзал и Ангарский (Глазковский) мост", "zd_link": "progimnasia-gajduk" }, "geometry": { "type": "Point", "coordinates": [ 104.264596985162456, 52.287390679690169 ] } },
{ "type": "Feature", "properties": { "id_0": 1, "id": 1117, "zd_gov": "audio_s1/dom-arhitektora", "zd_name": "Здания говорят. Дом архитектора (пер. Черемховский, 1)", "zd_link": "dom-arhitektora" }, "geometry": { "type": "Point", "coordinates": [ 104.274172953642449, 52.287687685334966 ] } },
{ "type": "Feature", "properties": { "id_0": 2, "id": 623, "zd_gov": "audio_s1/osobnyak-rassushina", "zd_name": "Здания говорят. Особняк Рассушина (ул. Карла Маркса, 10)", "zd_link": "osobnyak-rassushina" }, "geometry": { "type": "Point", "coordinates": [ 104.280298447778534, 52.2770652295793 ] } },
{ "type": "Feature", "properties": { "id_0": 3, "id": 409, "zd_gov": "audio_s1/dom-gajdaya", "zd_name": "Здания говорят. Дом Гайдая (ул. Касьянова, 35)", "zd_link": "dom-gajdaya" }, "geometry": { "type": "Point", "coordinates": [ 104.241249464089307, 52.283192644502712 ] } },
{ "type": "Feature", "properties": { "id_0": 4, "id": 191, "zd_gov": "audio_s1/kuznecovskaya-bolnica", "zd_name": "Здания говорят. Кузнецовская больница (бул. Гагарина, 4)", "zd_link": "kuznecovskaya-bolnica" }, "geometry": { "type": "Point", "coordinates": [ 104.285134124844362, 52.272371838962165 ] } },
{ "type": "Feature", "properties": { "id_0": 5, "id": 914, "zd_gov": "audio_s1/dom-savincevyh", "zd_name": "Здания говорят. Дом Савинцевых (ул. Седова, 64)", "zd_link": "dom-savincevyh" }, "geometry": { "type": "Point", "coordinates": [ 104.299101668322351, 52.269595515016817 ] } }
]
}
